Time [s],Latitude [deg],Longitude [deg],Altitude [m],Vel N [m/s],Vel E [m/s],Vel D [m/s],Roll [deg],Pitch [deg],Yaw [deg]
0,0,0.00044915764205056,0.000195982096690976,1.00000000213644,1.00000000014265,-7.83927971559351e-06,-0.000449157162021499,0.000317602414203898,44.9999999428823
0.1,9.06177491277544e-07,0.000450054997336641,0.000196767063259354,1.00399746076682,0.997794007352473,-7.85349257936829e-06,-0.000450055341056702,0.00031789196339812,44.8224437625399
0.2,1.81596713810526e-06,0.000450950185929992,0.000197553436577856,1.00798769133744,0.995176127120949,-7.86454667212055e-06,-0.000450953347577108,0.00031811633836428,44.6335603990991
0.3,2.72936093998578e-06,0.000451842837933188,0.000198339809896357,1.0119674599969,0.992146629161891,-7.87241882171941e-06,-0.000451850376007119,0.00031827471737017,44.4333591414264
0.4,3.6463479774155e-06,0.000452732583772228,0.000199127589964982,1.0159335423986,0.988705962078222,-7.8770872111722e-06,-0.000452747237168188,0.000318366193001052,44.2218403780274
0.5,4.56691441638203e-06,0.000453619054354472,0.000199915370033606,1.01988271867935,0.9848547493921,-7.87853138572991e-06,-0.000453641521798481,0.000318389772959413,43.9989958092112
0.6,5.49104351465143e-06,0.000454501881226381,0.00020070244672717,1.02381177731278,0.980593790285768,-7.87673230506769e-06,-0.000454534848790821,0.000318344380452803,43.7648085425101
0.7,6.41871562984165e-06,0.000455380696730965,0.000201490226795795,1.02771751657953,0.975924058981389,-7.87167236881992e-06,-0.000455425623237768,0.000318228854036223,43.5192532180795
0.8,7.34990822927789e-06,0.000456255134164895,0.000202276600114297,1.0315967466693,0.970846704387203,-7.86333546076712e-06,-0.000456313860087861,0.000318041948013501,43.2622961262498
0.9,8.28459590162423e-06,0.000457124827935188,0.0002030629734328,1.03544629160565,0.965363049575043,-7.85170698192061e-06,-0.000457199574131057,0.000317782332406877,42.9938953283837
1,9.22275037028527e-06,0.000457989413715414,0.000203847236626119,1.03926299120888,0.959474591205797,-7.8367738858276e-06,-0.000458081984369696,0.000317448592994751,42.7140007793325
1.1,1.01643405085703e-05,0.000458848528601341,0.000204629389694255,1.04304370303785,0.953182998870764,-7.81852470987943e-06,-0.000458960315750958,0.000317039231196204,42.4225544532889
1.2,1.11093323566118e-05,0.000459701811265958,0.000205410136012268,1.04678530432549,0.946490114360249,-7.79694961106081e-06,-0.000459835384246887,0.000316552664156646,42.119490474138
1.3,1.20576891400284e-05,0.000460548902113807,0.00020619017895522,1.0504846939023,0.939397950854125,-7.7720403948156e-06,-0.000460706417351037,0.000315987224595954,41.8047352515936
1.4,1.30093712903228e-05,0.000461389443434553,0.000206964594897682,1.05413879410838,0.931908692037671,-7.74379054591101e-06,-0.000461572648294521,0.000315341160788822,41.4782076246095
1.5,1.39643364670029e-05,0.000462223079555728,0.000207738307465083,1.0577445526923,0.92402469114272,-7.71219526018996e-06,-0.000462434104063542,0.000314612636718162,41.1398190136365
1.6,1.49225395814134e-05,0.000463049456994573,0.000208506393031994,1.06129894469592,0.915748469912398,-7.67725146588738e-06,-0.000463289237919305,0.000313799731773698,40.78947358334
1.7,1.58839328222663e-05,0.00046386822460893,0.000209273071848783,1.0647989743242,0.907082717494859,-7.63895785760305e-06,-0.000464139655303113,0.000312900441277468,40.427068417752
1.8,1.68484656828539e-05,0.000464679033747093,0.000210034827040143,1.06824167679885,0.898030289259533,-7.59731491606352e-06,-0.000464983814450893,0.000311912676453446,40.0524937095996
1.9,1.78160849899317e-05,0.000465481538396571,0.000210790955231013,1.07162412019481,0.888594205541929,-7.55232493410141e-06,-0.000465821749386046,0.00031083426489279,39.6656329660719
2,1.87867349342533e-05,0.000466275395331687,0.000211546380046822,1.07494340725855,0.878777650316982,-7.50399203663932e-06,-0.000466653493637642,0.000309662950984787,39.2663632332545
2.1,1.97603571027412e-05,0.000467060264259958,0.000212294067736957,1.07819667720731,0.868583969798327,-7.45232220356051e-06,-0.00046747752096956,0.000308396396722046,38.8545553415142
2.2,2.0736890512276e-05,0.000467835807967177,0.000213036128426602,1.08138110750799,0.858016670966939,-7.3973232892488e-06,-0.000468294650400152,0.000307032182662651,38.4300741744703
2.3,2.17162716450845e-05,0.000468601692461148,0.000213772562115757,1.08449391563499,0.847079420029178,-7.33900503546714e-06,-0.000469104141038472,0.000305567808950047,37.9927789642234
2.4,2.26984344857082e-05,0.000469357587113999,0.000214501962054299,1.08753236080583,0.835776040805056,-7.2773790926739e-06,-0.000469906032361762,0.000304000697060405,37.5425236156946
2.5,2.368331055953e-05,0.000470103164803022,0.000215228548492596,1.0904937456938,0.82411051304642,-7.21245903068102e-06,-0.000470698814600284,0.000302328191533768,37.0791570630427
2.6,2.46708289728406e-05,0.000470838102049966,0.000215945287680036,1.09337541811634,0.812086970687317,-7.14426035219873e-06,-0.000471484079738373,0.000300547562300392,36.6025236613545
2.7,2.56609164544185e-05,0.000471562079158731,0.000216657103242047,1.09617477269856,0.799709700026368,-7.0728005026055e-06,-0.000472259550039529,0.000298656007379695,36.1124636168644
2.8,2.66534973986048e-05,0.000472274780351397,0.000217359774928262,1.09888925251082,0.786983137841266,-6.99809887949598e-06,-0.000473026044172989,0.000296650656157864,35.6088134590959
2.9,2.76484939098455e-05,0.00047297589390253,0.000218055412863864,1.10151635067937,0.77391186943944,-6.92017683956436e-06,-0.000473782836439359,0.000294528573202514,35.0914065585657
3,2.86458258486786e-05,0.000473665112271709,0.000218744017048853,1.10405361196937,0.760500626641294,-6.83905770260118e-06,-0.000474529973256983,0.000292286762669024,34.5600736935292
3.1,2.96454108791398e-05,0.00047434213223421,0.000219424180733107,1.10649863433914,0.746754285699743,-6.75476675704445e-06,-0.000475267500161954,0.000289922173555199,34.0146436695637
3.2,3.06471645175605e-05,0.000475006655009798,0.000220095200541565,1.10884907046503,0.732677865157625,-6.66733126020169e-06,-0.000475993930442821,0.000287431705582624,33.454943995756
3.3,3.1651000182731e-05,0.000475658386389554,0.000220757779849287,1.11110262923579,0.718276523640658,-6.57678043558541e-06,-0.000476710079370416,0.000284812215880045,32.8808016211328
3.4,3.26568292474017e-05,0.000476297036860707,0.000221410511906152,1.11325707721597,0.703555557591163,-6.48314547446738e-06,-0.000477415229800626,0.000282060526851572,32.2920437351875
3.5,3.36645610910927e-05,0.000476922321729394,0.000222052693337098,1.11531024007696,0.688520398939126,-6.38645952721895e-06,-0.000478108668093012,0.000279173434685406,31.688498635974
3.6,3.46741031541832e-05,0.0004775339612413,0.000222688544392492,1.11726000399557,0.673176612716541,-6.28675770109055e-06,-0.000478791206355187,0.000276147719310062,31.0699966694028
3.7,3.56853609932502e-05,0.000478131680700135,0.000223310327946661,1.11910431701869,0.657529894611342,-6.18407705044177e-06,-0.000479461370830698,0.00027298015520328,30.436371242816
3.8,3.66982383376264e-05,0.000478715210583883,0.000223924374375156,1.12084119039372,0.641586068464906,-6.07845656297457e-06,-0.000480119213334628,0.00026966752348417,29.7874599158834
3.9,3.77126371471452e-05,0.00047928428665878,0.00022452646342761,1.12246869986386,0.625351083714393,-5.9699371539601e-06,-0.0004807655425414,0.000266206625552474,29.1231055713612
4,3.87284576710405e-05,0.000479838650090968,0.000225118705229205,1.12398498692743,0.608831012778618,-5.85856164536658e-06,-0.000481398890636617,0.000262594297666988,28.4431576676657
4.1,3.974559850797e-05,0.000480378047555776,0.00022569898965476,1.12538826006073,0.592032048392518,-5.7443747558672e-06,-0.000482019308789783,0.000258827427470754,27.7474735748281
4.2,4.07639566671264e-05,0.000480902231344588,0.00022626590995415,1.12667679590344,0.574960500886129,-5.6274230779696e-06,-0.00048262684686533,0.000254902971531508,27.0359199943093
4.3,4.17834276304041e-05,0.000481410959469239,0.000226823686377743,1.12784894040619,0.557622795415158,-5.50775506025225e-06,-0.000483220799204356,0.000250817974732002,26.3083744627006
4.4,4.28039054155868e-05,0.000481903995763898,0.000227368802050233,1.12890310993956,0.540025469140562,-5.38542098471595e-06,-0.000483801215843614,0.000246569591095324,25.564726937942
4.5,4.38252826405191e-05,0.000482381109984401,0.000227901256971621,1.12983779236357,0.522175168357933,-5.2604729434691e-06,-0.000484367392987926,0.000242155106248271,24.8048814656398
4.6,4.48474505882286e-05,0.000482842077904985,0.000228420347766844,1.13065154805759,0.504078645582523,-5.13296481163827e-06,-0.000484920132112099,0.000237571961374651,24.028757921932
4.7,4.58702992729603e-05,0.000483286681412374,0.000228926777810965,1.13134301090954,0.485742756585606,-5.0029522202788e-06,-0.000485458728354336,0.000232817778802204,23.2362938274448
4.8,4.68937175070874e-05,0.000483714708597191,0.000229420547103982,1.13191088926426,0.46717445738653,-4.87049252817506e-06,-0.000485982478782785,0.000227890389118265,22.4274462255782
4.9,4.79175929688612e-05,0.000484125953842644,0.000229901655645897,1.1323539668301,0.448380801202699,-4.73564478697952e-06,-0.000486491431345888,0.000222787859468111,21.6021936164688
5,4.89418122709615e-05,0.000484520217910456,0.000230367993311525,1.13267110354347,0.429368935355851,-4.59846971101463e-06,-0.000486985632439745,0.000217508523443025,20.760537935857
5.1,4.99662610298101e-05,0.000484897308023993,0.00023082167022605,1.13286123639086,0.410146098138959,-4.45902964063549e-06,-0.000487464379256296,0.000212051011883981,19.9025065662649
5.2,5.09908239356074e-05,0.000485257037948568,0.000231259872889227,1.13292338018742,0.390719615643,-4.31738850692476e-06,-0.000487928464250008,0.000206414284766498,19.0281543655051
5.3,5.20153848230547e-05,0.000485599228068863,0.000231684008051178,1.13285662831239,0.37109689854655,-4.17361179128051e-06,-0.000488376436664175,0.000200597663632161,18.1375656954456
5.4,5.30398267427206e-05,0.000485923705463469,0.000232094075711904,1.13266015340021,0.351285438868473,-4.02776648456005e-06,-0.000488809832033768,0.00019460086442544,17.2308564315886
5.5,5.40640320330129e-05,0.000486230303976479,0.000232490075871404,1.13233320798727,0.3312928066866,-3.87992104866619e-06,-0.000489226454159324,0.000188424030769829,16.3081759318846
5.6,5.5087882392715e-05,0.000486518864286122,0.000232870601779556,1.13187512511379,0.311126646821709,-3.7301453694738e-06,-0.000489627090230422,0.000182067766396237,15.3697089408847
5.7,5.61112589540466e-05,0.000486789233970408,0.00023323565343636,1.13128531888072,0.290794675491098,-3.57851071308701e-06,-0.000490012523245003,0.000175533167248729,14.4156774035529
5.8,5.71340423562069e-05,0.000487041267569746,0.000233584527466755,1.13056328496078,0.270304676930711,-3.42508967943189e-06,-0.00049038055937125,0.000168821852289565,13.4463421610351
5.9,5.81561128193591e-05,0.000487274826646523,0.000233920740746046,1.1297086010638,0.249664499987704,-3.26995615385073e-06,-0.000490732723143023,0.000161935992603451,12.4620044993261
6,5.91773502190163e-05,0.000487489779841599,0.000234240073023867,1.12872092735603,0.228882054688514,-3.11318525714199e-06,-0.000491068306521418,0.000154878338273071,11.4630075208459
6.1,6.01976341607836e-05,0.000487686002927719,0.000234542524300217,1.12760000683267,0.207965308777134,-2.95485329471212e-06,-0.000491386601770096,0.000147652242495972,10.4497373078275
6.2,6.12168440554176e-05,0.000487863378859793,0.000234831611450403,1.12634566564411,0.186922284233011,-2.79503770639344e-06,-0.000491689124966469,0.000140261682442851,9.42262384705839
6.3,6.22348591941591e-05,0.000488021797822048,0.000235101004098874,1.124957813375,0.165761053763061,-2.63381700849052e-06,-0.000491973682746227,0.000132711275853195,8.38214168538876
6.4,6.32515588242968e-05,0.000488161157272012,0.00023535703262118,1.12343644327624,0.144489737274223,-2.4712707435981e-06,-0.000492241787104486,0.000125006293572856,7.32881028727811
6.5,6.426682222492e-05,0.000488281361981322,0.000235596180142015,1.1217816324499,0.123116498327358,-2.30747942309151e-06,-0.000492491984830428,0.000117152666731972,6.26319406742794
6.6,6.52805287828163e-05,0.00048838232407334,0.00023581915003644,1.11999354198654,0.101649540570526,-2.1425244678408e-06,-0.000492725782585966,0.000109156988330622,5.1859020742531
6.7,6.62925580684727e-05,0.000488463963057557,0.000236024535554334,1.11807241705487,0.080097104158139,-1.97648815536411e-06,-0.000492941724974822,0.000101026509201874,4.09758730401454
6.8,6.73027899121359e-05,0.000488526205860772,0.00023621444682088,1.1160185869441,0.0584674621548758,-1.80945355565676e-06,-0.000493139835453207,9.27691270745019e-05,2.99894562950093
6.9,6.83111044798893e-05,0.000488568986855035,0.000236387477085955,1.11383246505835,0.036768916926665,-1.64150447368172e-06,-0.000493320874303309,8.43933693632019e-05,1.89071433251608
7,6.93173823497036e-05,0.000488592247882344,0.000236542922974498,1.11151454886324,0.0150097965184851,-1.47272538963961e-06,-0.000493484121760174,7.5908369056931e-05,0.773670235161115
7.1,7.03215045874174e-05,0.000488595938276085,0.00023668148786157,1.10906541978498,-0.00680154897444826,-1.30320139524187e-06,-0.000493630333792316,6.73238335541434e-05,-0.351372568316226
7.2,7.13233528226046e-05,0.000488580014879201,0.00023680246837211,1.10648574306129,-0.0286567510469987,-1.13301813398081e-06,-0.000493758787439458,5.86500069072505e-05,-1.4835653710625
7.3,7.23228093242859e-05,0.000488544442059097,0.000236907974631302,1.10377626754489,-0.050547426429164,-9.62261736514591e-07,-0.000493868020562105,4.98976252415019e-05,-2.62202788879729
7.4,7.33197570764406e-05,0.000488489191719265,0.000236995896513962,1.10093782545915,-0.0724651807360369,-7.9101875782861e-07,-0.000493960997284553,4.10778660692703e-05,-3.76585164805066
7.5,7.43140798532764e-05,0.000488414243307623,0.00023706623402009,1.09797133210623,-0.0944016121228304,-6.19376114840975e-07,-0.000494035513609629,3.22022918518224e-05,-4.91410369784203
7.6,7.53056622942129e-05,0.000488319583821579,0.000237118283774625,1.09487778552749,-0.11634831493904,-4.47421018456851e-07,-0.000494092315542797,2.32827879912252e-05,-6.06583060818496
7.7,7.62943899785374e-05,0.000488205207809807,0.000237156266027934,1.09165826611678,-0.138296883384608,-2.75240915170727e-07,-0.000494130671607367,1.43314972345861e-05,-7.22006271314578
7.8,7.7280149499689e-05,0.000488071117370736,0.000237173850404466,1.08831393618628,-0.160238915164308,-1.02923415346012e-07,-0.000494151323610469,5.36074957462746e-06,-8.37581855050429
7.9,7.82628285391294e-05,0.000487917322147768,0.00023717596052965,1.08484603948554,-0.18216601513759,6.94437662929204e-08,-0.000494154273842102,-3.61700978351528e-06,-9.53210944574373
8,7.92423159397569e-05,0.000487743839321208,0.000237160486278302,1.0812559006735,-0.204069798965375,2.41772878606383e-07,-0.000494138784998803,-1.25892945673848e-05,-10.6879441850575
8.1,8.0218501778822e-05,0.000487550693596925,0.000237128131025483,1.07754492474385,-0.225941896748692,4.13976198876398e-07,-0.000494105592984592,-2.15436517095146e-05,-11.8423337196942
8.2,8.11912774403028e-05,0.000487337917191755,0.00023707678464601,1.07371459640435,-0.247773956660277,5.85966096977586e-07,-0.000494054694211802,-3.04677355179642e-05,-12.9942958435593
8.3,8.21605356866976e-05,0.000487105549815631,0.000237009260640127,1.06976647940971,-0.269557648566975,7.57655100880328e-07,-0.000493985345448417,-3.93493801420771e-05,-14.1428597864438
8.4,8.31261707301936e-05,0.000486853638650479,0.000236927669133019,1.06570221584897,-0.291284667638288,9.28955962153921e-07,-0.000493899014736698,-4.81766695701281e-05,-15.2870706670402
8.5,8.40880783031708e-05,0.000486582238325868,0.000236825679749133,1.06152352538739,-0.312946737945203,1.09978171947134e-06,-0.000493794217037499,-5.69380040647495e-05,-16.425993753522
8.6,8.50461557280001e-05,0.000486291410891437,0.000236706809363777,1.05723220446323,-0.334535616042096,1.2700457632242e-06,-0.000493671678840398,-6.5622162323692e-05,-17.5587184831762
8.7,8.60003019860937e-05,0.000485981225786114,0.00023657105797695,1.05283012543978,-0.356043094533302,1.43966189991573e-06,-0.000493531386939731,-7.42183585771418e-05,-18.6843621982921
8.8,8.69504177861698e-05,0.000485651759804133,0.000236417722213591,1.0483192357133,-0.377461005622575,1.60854441477731e-06,-0.000493374064924411,-8.27162939091515e-05,-19.8020735613856
8.9,8.789640563169e-05,0.000485303097057878,0.000236248912198883,1.04370155677689,-0.398781224641496,1.77660813482916e-06,-0.000493198218493516,-9.11062012942944e-05,-20.9110356193908
9,8.88381698874306e-05,0.000484935328937561,0.000236062517807644,1.03897918324096,-0.419995673558881,1.94376849171896e-06,-0.000493005306402088,-9.93788842986534e-05,-22.0104684937554
9.1,8.97756168451484e-05,0.000484548554067758,0.000235859242414934,1.03415428181106,-0.441096324466385,2.10994158189592e-06,-0.000492795308599912,-0.000107525748681812,-23.099631680215
9.2,9.07086547883033e-05,0.000484142878260831,0.000235641196145938,1.02922909022285,-0.462075203040618,2.27504422900537e-06,-0.000492566723381732,-0.000115538827306961,-24.1778259494096
9.3,9.16371940557984e-05,0.00048371841446724,0.000235404862125348,1.02420591613533,-0.482924391980202,2.43899404273051e-06,-0.000492321745762836,-0.000123410798104668,-25.2443948462848
9.4,9.25611471046999e-05,0.000483275282722792,0.000235153757228471,1.01908713598292,-0.503636034414007,2.60170947830041e-06,-0.000492058869839636,-0.000131134995471986,-26.2987257925861
9.5,9.34804285719021e-05,0.000482813610092828,0.000234884364580001,1.01387519378629,-0.52420233728318,2.76310989399953e-06,-0.000491779549176511,-0.000138705415157788,-27.3402508029921
9.6,9.43949553346963e-05,0.000482333530613401,0.000234601607805366,1.00857259992332,-0.544615574690955,2.92311560978753e-06,-0.000491483014181006,-0.000146116713219542,-28.3684468302491
9.7,9.53046465702122e-05,0.000481835185229441,0.0002343012666542,1.00318192986036,-0.564868091222348,3.08164796058996e-06,-0.000491169975668925,-0.000153364199178761,-29.3828357595746
9.8,9.62094238136934e-05,0.000481318721729967,0.000233985451251685,0.997705822844442,-0.584952305229944,3.23862935547314e-06,-0.000490839659569593,-0.000160443824469223,-30.3829840760374
9.9,9.71092110155727e-05,0.000480784294680357,0.000233652051472639,0.992146980557196,-0.604860712085202,3.39398332649399e-06,-0.000490492774001703,-0.000167352165770869,-31.3685022316671
10,9.80039345973133e-05,0.000480232065351712,0.000233305287567428,0.986508165731106,-0.624585887394556,3.54763458454421e-06,-0.000490130027414728,-0.000174086404883251,-32.3390437411556
10.1,9.88935235059818e-05,0.000479662201647351,0.000232943049410869,0.980792200728962,-0.644120490177131,3.6995090684222e-06,-0.000489750640394659,-0.000180644304858651,-33.2943040362394
10.2,9.97779092675196e-05,0.000479074878026464,0.000232564633627901,0.975001966086823,-0.663457266004289,3.84953399623633e-06,-0.000489355318999191,-0.000187024183438086,-34.2340191096553
10.3,0.000100657026038681,0.000478470275424971,0.00023217355709383,0.969140399021609,-0.68258905009928,3.99763791292251e-06,-0.00048894327918343,-0.00019322488414643,-35.1579639794408
10.4,0.000101530810657606,0.000477848581173604,0.000231767006308411,0.963210491903964,-0.701508770394115,4.14375073609641e-06,-0.00048851597077142,-0.000199245745631866,-36.0659510037494
10.5,0.000102399202692995,0.000477209988913273,0.000231344277896582,0.957215290697052,-0.720209450545054,4.28780380357097e-06,-0.000488072606893933,-0.000205086569911224,-36.9578280754652
10.6,0.000103262144491861,0.000476554698507734,0.000230908185358589,0.951157893362304,-0.73868421290282,4.42972991587798e-06,-0.000487613891242333,-0.000210747589750219,-37.8334767242284
10.7,0.000104119581225816,0.000475882915953615,0.000230460135444554,0.945041448232515,-0.756926281438124,4.56946337712427e-06,-0.000487139780408407,-0.000216229435534788,-38.6928101519137
10.8,0.000104971460935886,0.000475194853287831,0.000229994501153988,0.938869152353699,-0.774928984619714,4.70694003829042e-06,-0.000486650978363409,-0.000221533102625881,-39.5357712254532
10.9,0.000105817734575795,0.00047449072849244,0.00022951690948738,0.932644249796315,-0.792685758243482,4.84209733409013e-06,-0.000486146691062776,-0.000226659918688799,-40.3623304488206
11,0.000106658356053728,0.000473770765396975,0.000229025953694607,0.926370029936064,-0.810190148215729,4.97487432027377e-06,-0.000485627620772985,-0.000231611511836761,-41.1724839339299
11.1,0.000107493282272505,0.000473035193578299,0.000228522337150732,0.920049825706354,-0.827435813281473,5.10521170982159e-06,-0.000485094471363507,-0.000236389779690469,-41.9662513874405
11.2,0.00010832247316818,0.000472284248258033,0.000228005356480693,0.913687011822571,-0.844416527703318,5.23305190636147e-06,-0.0004845471963728,-0.000240996859633556,-42.7436741288031
11.3,0.00010914589174701,0.000471518170197605,0.000227476418434611,0.90728500297883,-0.861126183888236,5.35833903358984e-06,-0.000483985747888988,-0.000245435100060377,-43.5048131523847
11.4,0.000109963504120787,0.000470737205590955,0.000226932709512243,0.900847252019127,-0.877558794958334,5.48101896946651e-06,-0.000483410076498974,-0.000249707033455793,-44.2497472443499
11.5,0.000110775279540504,0.000469941605954964,0.000226381263464202,0.894377248082635,-0.893708497267403,5.60103937019552e-06,-0.000482820886224898,-0.00025381535049273,-44.9785711632835
11.6,0.000111581190428327,0.000469131628017642,0.000225814343164812,0.88787851472494,-0.909569552861411,5.71834969875784e-06,-0.000482218127500995,-0.000257762875961745,-45.6913938915197
11.7,0.000112381212407868,0.000468307533604134,0.000225236168864441,0.881354608016004,-0.925136351881533,5.83290124755997e-06,-0.000481602506130515,-0.000261552546227253,-46.3883369625308
11.8,0.000113175324332717,0.000467469589520592,0.000224648147313213,0.874809114615628,-0.940403414908138,5.94464716197063e-06,-0.000480974730537487,-0.000265187388184979,-47.0695328682099
11.9,0.000113963508313228,0.00046661806743597,0.000224048871761005,0.868245649827572,-0.9553653952465,6.05354246074885e-06,-0.000480333235481897,-0.000268670499873293,-47.7351235485997
12,0.00011474574974154,0.000465753243761789,0.000223437638832755,0.861667855633353,-0.970017081151274,6.15954405269736e-06,-0.000479679485545563,-0.000272005032509439,-48.3852589653124
12.1,0.000115522037314804,0.000464875399529935,0.000222815855278586,0.855079398706744,-0.984353397989612,6.26261075464818e-06,-0.000479013430577499,-0.000275194174128765,-49.0200957589432
12.2,0.000116292363056608,0.000463984820268541,0.000222183521098498,0.848483968409654,-0.998369410343324,6.36270330611755e-06,-0.000478336543021857,-0.000278241134674277,-49.6397959899112
12.3,0.000117056722336587,0.000463081795876005,0.000221544153167797,0.841885274771505,-1.01206032404565,6.45978438029715e-06,-0.000477647250794069,-0.000281149132332979,-50.2445259612219
12.4,0.000117815113888191,0.000462166620493217,0.000220892827861055,0.835287046451515,-1.02542148815562,6.55381859648863e-06,-0.000476946264226495,-0.000283921381271655,-50.8344551213241
12.5,0.000118567539824606,0.000461239592374027,0.000220232358678517,0.828693028686269,-1.03844839686745,6.64477252665385e-06,-0.00047623506232795,-0.000286561080619425,-51.409755044463
12.6,0.000119314005652815,0.000460301013754038,0.000219563448995243,0.822106981223583,-1.05113669135342,6.73261470385267e-06,-0.000475513599222114,-0.000289071404569861,-51.9705984855996
12.7,0.000120054520285779,0.000459351190717774,0.000218887505561356,0.815532676242518,-1.06348216154096,6.81731562623966e-06,-0.000474780292875644,-0.000291455493628101,-52.5171585067612
12.8,0.000120789096052738,0.00045839043306427,0.000218201714876612,0.808973896262282,-1.07548074782196,6.89884775906258e-06,-0.00047403739486681,-0.000293716446723071,-53.0496076712766
12.9,0.00012151774870761,0.000457419054171174,0.000217505373565949,0.802434432040015,-1.08712854269443,6.97718553632765e-06,-0.00047328486005718,-0.000295857314413821,-53.5681173023501
13,0.000122240497435486,0.000456437370857389,0.000216806218755041,0.795918080458924,-1.09842179233589,7.05230535913426e-06,-0.000472522642341433,-0.000297881092782861,-54.0728568022504
13.1,0.000122957364857218,0.000455445703244344,0.000216095809943152,0.789428642407912,-1.10935689810646,7.1241855938986e-06,-0.000471750694850916,-0.000299790718347272,-54.563993028338
13.2,0.000123668377032071,0.000454444374615939,0.000215380477505835,0.78296992065359,-1.11993041798264,7.19280656569232e-06,-0.000470970517433439,-0.000301589063376933,-55.0416897222269
13.3,0.000124373563458463,0.000453433711277239,0.000214658111317905,0.776545717705972,-1.13013906792078,7.25815055258039e-06,-0.000470181293958669,-0.000303278932103295,-55.5061069883616
13.4,0.000125072957072766,0.000452414042411972,0.000213928711379363,0.770159833679291,-1.13997972314893,7.3202017771834e-06,-0.00046938375529263,-0.000304863057360718,-55.9574008183399
13.5,0.000125766594246164,0.000451385699938898,0.000213192981065269,0.76381606414858,-1.14944941938692,7.3789463953533e-06,-0.000468578636754118,-0.000306344097711248,-56.3957226574746
13.6,0.000126454514779586,0.000450349018367116,0.000212453030500808,0.75751819800289,-1.15854535399542,7.43437248540424e-06,-0.000467765899235033,-0.000307724635358177,-56.8212190101944
13.7,0.000127136761896682,0.000449304334650372,0.000211708156310918,0.751270015297172,-1.16726488705111,7.48647003390168e-06,-0.000466945502940275,-0.000309007174008705,-57.2340310809093
13.8,0.000127813382234863,0.000448251988040432,0.000210954841620293,0.745075285103606,-1.17560554234885,7.53523091878705e-06,-0.00046611818937164,-0.000310194137372721,-57.6342944472191
13.9,0.000128484425834401,0.000447192319939591,0.000210200823554607,0.738937763363339,-1.1835650083321,7.5806488943897e-06,-0.000465283921558361,-0.000311287867890582,-58.0221387624993
14,0.000129149946125577,0.00044612567375237,0.000209438364988186,0.732861190739136,-1.1911411389474,7.62271957155392e-06,-0.000464443446829011,-0.00031229062591889,-58.3976874849379
14.1,0.000129809999913897,0.000445052394736494,0.000208675203046704,0.726849290471995,-1.19833195442614,7.66144039598959e-06,-0.000463596731418819,-0.000313204588661822,-58.7610576303324
14.2,0.000130464647363371,0.000443972829853189,0.000207908524229915,0.720905766241053,-1.20513564199181,7.6968106292874e-06,-0.000462744528635803,-0.000314031849993026,-59.1123595461196
14.3,0.000131113951977848,0.000442887327616878,0.000207136921787698,0.715034300028309,-1.21155055649066,7.72883132305058e-06,-0.000461886808175636,-0.000314774419819506,-59.4516967041868
14.4,0.00013175798058044,0.000441796237944354,0.000206361802470174,0.709238549990061,-1.21757522095121,7.7575052946921e-06,-0.000461025120291559,-0.000315434223928954,-59.7791655103051
14.5,0.000132396803291009,0.000440699912003468,0.000205585276402529,0.703522148335892,-1.22320832706547,7.78283710256567e-06,-0.000460157858650792,-0.000316013103837086,-60.09485512794
14.6,0.000133030493501746,0.000439598702061436,0.000204805936834638,0.697888699215119,-1.2284487355952,7.80483301687784e-06,-0.000459285785212459,-0.000316512816685865,-60.3988473145918
14.7,0.000133659127850846,0.000438492961332801,0.00020402237701638,0.692341776613961,-1.23329547670492,7.82350099004514e-06,-0.000458410462646685,-0.00031693503526894,-60.691216268796
14.8,0.000134282786194278,0.000437383043827139,0.000203240927323306,0.686884922263182,-1.23774775021709,7.83885062993761e-06,-0.000457531872277253,-0.000317281348031654,-60.9720284860432
14.9,0.000134901551575674,0.000436269304196562,0.000202456664129987,0.681521643557239,-1.24180492579343,7.85089316546195e-06,-0.000456649995275281,-0.000317553259121926,-61.2413426221281
15,0.000135515510194341,0.000435152097583098,0.000201670290811484,0.676255411487103,-1.24546654303884,7.85964141525319e-06,-0.000455764812582883,-0.000317752188466589,-61.4992093623694
15.1,0.000136124751371411,0.000434031779466012,0.000200883917492982,0.671089658586348,-1.24873231153227,7.86510975447907e-06,-0.00045487710608218,-0.000317879471695053,-61.7456712955026
15.2,0.000136729367514132,0.000432908705509124,0.00020009754417448,0.666027776893734,-1.25160211077998,7.86731408053409e-06,-0.000453987663787397,-0.000317936360190196,-61.9807627908541
15.3,0.000137329454078339,0.000431783231408218,0.000199311170855977,0.661073115931064,-1.25407599009432,7.86627177717936e-06,-0.00045309567114576,-0.000317924021012032,-62.2045098778189
15.4,0.000137925109529087,0.000430655712738579,0.000198526204287598,0.656228980698857,-1.25615416839709,7.86200167779416e-06,-0.000452202724948385,-0.000317843536770484,-62.416930126556
15.5,0.000138516435299494,0.000429526504802748,0.000197739830969097,0.651498629690969,-1.25783703394794,7.85452403051501e-06,-0.000451308819597496,-0.000317695905498168,-62.6180325289851
15.6,0.00013910353574779,0.000428395962478555,0.000196954864400718,0.646885272928545,-1.25912514399726,7.84386045671326e-06,-0.000450413949317206,-0.000317482040192388,-62.8078173792805
15.7,0.000139686518112596,0.000427264440067496,0.0001961706012074,0.642392070014457,-1.26001922436465,7.83003391635617e-06,-0.00044951810840796,-0.000317202768687916,-62.9862761531474
15.8,0.000140265492466456,0.000426132291143518,0.000195387744764205,0.638022128210096,-1.26052016894361,7.8130686661515e-06,-0.000448623728238423,-0.000316858833020882,-63.1533913852293
15.9,0.000140840571667646,0.000424999868402292,0.000194609108571379,0.633778500534794,-1.26062903913057,7.79299022035662e-06,-0.000447728375506154,-0.000316450888970773,-63.3091365440978
16,0.000141411871310259,0.000423867523511022,0.000193829769003491,0.629664183888803,-1.26034706318121,7.76982531147663e-06,-0.000446834491325037,-0.000315979505347987,-63.4534759044326
16.1,0.000141979509672622,0.000422735606958869,0.000193053242935848,0.625682117202069,-1.25967563549294,7.74360184829792e-06,-0.00044594126724896,-0.000315445163103281,-63.5863644159727
16.2,0.000142543607664035,0.000421604467908059,0.000192280233743512,0.621835179607906,-1.25861631581382,7.71434887569811e-06,-0.000445048707247257,-0.000314848254538992,-63.7077475690588
16.3,0.000143104288769882,0.00042047445404572,0.000191512148176605,0.618126188644704,-1.25717082837932,7.68209653234653e-06,-0.000444159277038583,-0.000314189082189482,-63.8175612565568
16.4,0.000143661678995123,0.000419345911436544,0.00019074546935982,0.614557898484956,-1.25534106097681,7.6468760101811e-06,-0.000443271351028717,-0.000313467857625247,-63.9157316321742
16.5,0.000144215906806195,0.000418219184376306,0.000189981604043281,0.611132998193257,-1.25312906393755,7.6087195118868e-06,-0.000442385762166764,-0.0003126847001807,-64.002174965202
16.6,0.000144767103071358,0.00041709461524633,0.000189223365727232,0.607854110014957,-1.2505370490583,7.56766020848509e-06,-0.000441503350017383,-0.000311839635351166,-64.0767974918788
16.7,0.000145315400999499,0.000415972544368955,0.00018846864428649,0.604723787694875,-1.2475673884514,7.52373219836677e-06,-0.000440624133638457,-0.000310932593393443,-64.1394952637194
16.8,0.000145860936077439,0.000414853309864061,0.000187717439721055,0.60174451482836,-1.24422261332598,7.47697046432627e-06,-0.000439748132240537,-0.000309963407290242,-64.1901539932612
16.9,0.000146403846005753,0.000413737247506725,0.000186973268906232,0.598918703245018,-1.24050541269752,7.4274108318173e-06,-0.000438876195489721,-0.000308931811096305,-64.2286488977974
17,0.000146944270633156,0.000412624690586066,0.000186234021716838,0.596248691426445,-1.2364186320306,7.37508992809666e-06,-0.000438008347660004,-0.000307837437801065,-64.2548445419379
17.1,0.000147482351889459,0.000411515969765341,0.000185496884652628,0.593736742957983,-1.23196527181281,7.3200451390365e-06,-0.000437145446890483,-0.000306679817038651,-64.2685946799443
17.2,0.000148018233717155,0.000410411412943346,0.000184770298214338,0.591385045016472,-1.22714848606024,7.2623145682682e-06,-0.000436287522467706,-0.000305458372848777,-64.2697420989507
17.3,0.000148552062001644,0.000409311345117205,0.000184046525276292,0.589195706894415,-1.22197158075742,7.20193699688121e-06,-0.00043543460385633,-0.000304172421234076,-64.2581184645118
17.4,0.000149083984500142,0.000408216088246569,0.000183329082713799,0.587170758560789,-1.21643801223084,7.13895184201174e-06,-0.000434587559169674,-0.000302821167462989,-64.2335441700981
17.5,0.000149614150769312,0.000407125961119325,0.000182618673901918,0.585312149260632,-1.21055138545664,7.07339911576454e-06,-0.000433746422783171,-0.000301403703423541,-64.1958281923809
17.6,0.000150142712091637,0.000406041279218841,0.000181913892090527,0.583621746153139,-1.20431545230491,7.00531938746529e-06,-0.000432911229174036,-0.000299919004697239,-64.1447679545718
17.7,0.000150669821400582,0.000404962354592824,0.000181218254154933,0.582101332989244,-1.19773410972012,6.93475374191621e-06,-0.000432082856302581,-0.000298365927734728,-64.0801492003071
17.8,0.000151195633204583,0.000403889495723835,0.000180527539844768,0.580752608829923,-1.19081139783839,6.86174374275872e-06,-0.000431261343455019,-0.000296743206802468,-64.0017458809409
17.9,0.000151720303509892,0.000402823007401532,0.000179843859285216,0.579577186805763,-1.18355149804352,6.7863313925054e-06,-0.000430447576657551,-0.00029504945077673,-63.9093200595539
18,0.000152243989742314,0.000401763190596674,0.000179170729351583,0.578576592918228,-1.17595873096239,6.70855909734591e-06,-0.000429641599878163,-0.000293283140319265,-63.8026218354051
18.1,0.00015276685066789,0.000400710342336968,0.000178502523043379,0.577752264883461,-1.16803755439951,6.62846962795616e-06,-0.000428842607189745,-0.000291442624391416,-63.6813892929961
18.2,0.000153289046312544,0.000399664755584781,0.000177846274111217,0.577105551020045,-1.15979256121409,6.54610608608053e-06,-0.000428052340594818,-0.000289526117480673,-63.5453484804897
18.3,0.000153810737880751,0.0003986267191168,0.000177194948804484,0.576637709179931,-1.15122847713887,6.46151186722843e-06,-0.000427270848514147,-0.000287531696343788,-63.3942134227973
18.4,0.000154332087673252,0.000397596517405668,0.000176552767373547,0.576349905724563,-1.14235015854067,6.37473062781169e-06,-0.000426499033741815,-0.000285457297182437,-63.2276861751774
18.5,0.00015485325900387,0.000396574430503661,0.000175919729818407,0.576243214546622,-1.13316259012758,6.28580625250397e-06,-0.000425735236740725,-0.000283300712895229,-63.0454569240095
18.6,0.000155374416115457,0.000395560733928447,0.000175295132764002,0.576318616136649,-1.12367088259981,6.19478281904673e-06,-0.000424981215925059,-0.000281059590406032,-62.8472041420207
18.7,0.000155895724095019,0.00039455569855098,0.000174681086335516,0.576576996697033,-1.11388027024763,6.10170457071568e-06,-0.0004242378825619,-0.00027873142867931,-62.6325948060155
18.8,0.000156417348788066,0.000393559590485579,0.000174074777032705,0.577019147303035,-1.10379610849706,6.00661588257001e-06,-0.000423503571719928,-0.000276313576531905,-62.4012846860243
18.9,0.000156939456712212,0.000392572670982226,0.000173478314980751,0.577645763110696,-1.09342387140369,5.90956123402986e-06,-0.00042278005456099,-0.000273803231513474,-62.1529187156453
19,0.000157462214970099,0.000391595196321147,0.000172895217054962,0.578457442613696,-1.08276914909745,5.81058518045463e-06,-0.000422067386579404,-0.000271197438939608,-61.8871314542151
19.1,0.000157985791161652,0.000390627417709708,0.000172317042754601,0.579454686948342,-1.07183764517749,5.70973232527638e-06,-0.000421365622836932,-0.000268493091815493,-61.6035476524132
19.2,0.00015851035329574,0.000389669581181668,0.000171751529205343,0.58063789924762,-1.06063517405973,5.60704729479777e-06,-0.000420675684269543,-0.000265686931497471,-61.3017829338637
19.3,0.000159036069701274,0.000388721927498844,0.000171195159531882,0.582007384045101,-1.0491676582793,5.502574713101e-06,-0.00041999676141335,-0.000262775549372365,-60.9814446062565
19.4,0.000159563108937778,0.000387784692055209,0.000170651450609524,0.583563346728321,-1.03744112574574,5.39635917740089e-06,-0.000419328907727114,-0.000259755389605488,-60.642132616395
19.5,0.000160091639705505,0.000386858104783487,0.000170117588938023,0.585305893042877,-1.02546170695567,5.28844523817185e-06,-0.000418673917247232,-0.000256622753338967,-60.2834406645784
19.6,0.000160621830755114,0.000385942390064261,0.000169594277892442,0.587235028647033,-1.01323563216362,5.178877374723e-06,-0.000418031850455132,-0.0002533738041623,-59.9049574945209
19.7,0.000161153850796971,0.00038503776663765,0.000169080814097718,0.589350658717424,-1.00076922850978,5.06769997743461e-06,-0.00041740189379037,-0.000250004575593021,-59.5062683756591
19.8,0.00016168786841012,0.000384144447517576,0.000168580011054098,0.59165258760604,-0.9880689171092,4.95495732777407e-06,-0.000416784976636469,-0.000246510980134922,-59.0869567954216
19.9,0.000162224051950966,0.000383262639908668,0.000168089055261335,0.594140518549049,-0.975141210102809,4.84069358142047e-06,-0.000416181157006746,-0.000242888820957044,-58.64660637929
20,0.000162762569461712,0.00038239254512583,0.000167611463594736,0.596814053427112,-0.961992707670341,4.72495275127827e-06,-0.000415590491947631,-0.000239133805633679,-58.1848030566056
20.1,0.000163303588578611,0.000381534358516513,0.000167144422554056,0.599672692578688,-0.948630095007963,4.60777869415452e-06,-0.000415013037665884,-0.000235241562937693,-57.7011374898182
20.2,0.000163847276440069,0.000380688269385709,0.000166690042264479,0.602715834664731,-0.935060139271727,4.48921509421663e-06,-0.000414450608146342,-0.000231207662229193,-57.1952077843079
20.3,0.000164393799594648,0.000379854460923714,0.000166246915975882,0.605942776586368,-0.921289686488244,4.36930545277825e-06,-0.000413901503522471,-0.000227027636584519,-56.6666224945992
20.4,0.000164943323909023,0.000379033110136673,0.000165815747063327,0.609352713455904,-0.907325658433448,4.24809307608687e-06,-0.00041336665859746,-0.000222697009054901,-56.1150039410459
20.5,0.000165496014475932,0.000378224387779951,0.000165399349027059,0.612944738619276,-0.893175049481725,4.12562106577585e-06,-0.000412847011634938,-0.000218211323072563,-55.5399918486971
20.6,0.000166052035522172,0.00037742845829434,0.000164991391491526,0.616717843733031,-0.87884492342622,4.00193230942758e-06,-0.00041234085225982,-0.00021356617659716,-54.9412473164854
20.7,0.00016661155031669,0.000376645479745137,0.000164596798082156,0.620670918893332,-0.864342410272324,3.87706947402311e-06,-0.000411850885063141,-0.000208757260867653,-54.3184571208998
20.8,0.000167174721078813,0.000375875603764118,0.00016421486542389,0.624802752818231,-0.849674703005737,3.75107499883676e-06,-0.000411375395980373,-0.00020378040327619,-53.6713383528469
20.9,0.000167741708886664,0.000375118975494416,0.000163845593516726,0.629112033083403,-0.834849054335646,3.62399109010703e-06,-0.000410915322231923,-0.000198631614949199,-52.9996433800116
21,0.000168312673585824,0.000374375733538349,0.000163490389110788,0.633597346410865,-0.819872773416382,3.49585971792798e-06,-0.000410470715622667,-0.000193307142959379,-52.3031651195468
21.1,0.00016888777369827,0.00037364600990819,0.000163147845455953,0.638257179010402,-0.804753222546706,3.36672261369575e-06,-0.000410041626507146,-0.000187803526761459,-51.5817425969369
21.2,0.00016946716633165,0.000372929929979917,0.000162819369302342,0.643089916974613,-0.789497813851147,3.236621267666e-06,-0.000409628993377992,-0.000182117659335182,-50.8352667569246
21.3,0.000170051007088938,0.000372227612449956,0.00016250074039959,0.648093846726822,-0.774114005941724,3.10559692850987e-06,-0.000409231975398324,-0.00017624685183962,-50.0636864810006
21.4,0.000170639449978519,0.000371539169294918,0.000162196882373124,0.653267155521272,-0.758609300563905,2.97369060509034e-06,-0.000408850618062797,-0.000170188902262266,-49.2670147538061
21.5,0.000171232647324753,0.000370864705734371,0.000161905685097761,0.65860793199688,-0.742991239228059,2.84094306657323e-06,-0.00040848585744682,-0.000163942166510795,-48.4453349074472
21.6,0.000171830749679053,0.000370204320196633,0.000161628555323623,0.664114166782967,-0.727267399826021,2.70739484697913e-06,-0.000408137738103602,-0.000157505631845708,-47.5988068590177
21.7,0.00017243390573155,0.000369558104287615,0.000161365493050711,0.669783753157542,-0.711445393237719,2.57308624707075e-06,-0.00040780719631211,-0.000150878990974533,-46.7276732427894
21.8,0.000173042262223361,0.000368926142762715,0.000161112981403717,0.675614487757742,-0.695532859925906,2.43805734034819e-06,-0.000407492486075044,-0.000144062716120585,-45.8322653246914
21.9,0.000173655963859538,0.000368308513501779,0.000160876647383133,0.681604071342111,-0.67953746652244,2.30234797937712e-06,-0.00040719453914226,-0.000137058131285167,-44.9130085741928
22,0.000174275153222718,0.000367705287487122,0.000160653677488712,0.687750109604748,-0.663466902408293,2.16599779989668e-06,-0.000406913392331859,-0.000129867480871218,-43.9704277575617
22.1,0.000174899970687538,0.000367116528784639,0.000160444071720456,0.694050114040484,-0.647328876286958,2.02904623036737e-06,-0.000406649976757586,-0.000122493993447072,-43.0051514077136
22.2,0.000175530554335855,0.000366542294527982,0.000160247126703302,0.700501502861298,-0.631131112753604,1.89153250074181e-06,-0.000406404326922096,-0.000114941938207667,-42.0179155204404
22.3,0.000176167039872817,0.000365982634905828,0.000160065655937496,0.7071016019634,-0.614881348862402,1.7534956492371e-06,-0.000406174680416431,-0.000107216672072199,-41.0095663254145
22.4,0.000176809560543832,0.000365437593152229,0.000159896845922793,0.713847645944265,-0.598587330693484,1.61497453432524e-06,-0.000405962859952866,-9.93246758152178e-05,-39.9810619836966
22.5,0.000177458247052479,0.000364907205540048,0.000159742806784376,0.72073677917015,-0.582256809918002,1.47600784428104e-06,-0.00040576889344395,-9.12735767121846e-05,-38.9334730721407
22.6,0.000178113227479406,0.000364391501377474,0.000159602835147185,0.727766056892772,-0.565897540368409,1.33663410739615e-06,-0.000405592806563121,-8.30721561473521e-05,-37.8679817303894
22.7,0.000178774627202262,0.000363890503007623,0.000159474117510974,0.734932446414695,-0.549517274610328,1.19689170696713e-06,-0.000405433723589174,-7.47303407336591e-05,-36.7858793666622
22.8,0.000179442568816704,0.000363404225811213,0.000159362984251295,0.742232828303838,-0.533123760520233,1.0568188898441e-06,-0.000405292563829635,-6.62591748581813e-05,-35.6885628460653
22.9,0.000180117172058523,0.000362932678212312,0.000159264511742718,0.749663997655541,-0.51672473787103,9.16453780974713e-07,-0.000405169346037054,-5.76707748567e-05,-34.5775291180571
23,0.000180798553726935,0.000362475861687144,0.000159178699985244,0.757222665402416,-0.500327934923893,7.75834397281905e-07,-0.000405064086546759,-4.89782636214977e-05,-33.4543682772825
23.1,0.000181486827609076,0.000362033770775963,0.000159107659104056,0.764905459670941,-0.483941065032071,6.3499866165273e-07,-0.000404975899434329,-4.01956861767143e-05,-32.320755093979
23.2,0.000182182104405745,0.000361606393097963,0.0001590542025994,0.772708927184653,-0.467571823254395,4.93984414262627e-07,-0.000404906596089264,-3.13379067047093e-05,-31.1784390934559
23.3,0.000182884491658439,0.00036119370936923,0.000159009889970541,0.780629534712664,-0.451227882983303,3.52829429561829e-07,-0.000404854385732057,-2.24204890080944e-05,-30.0292333086272
23.4,0.000183594093677716,0.000360795693423711,0.000158980348217968,0.788663670563943,-0.434916892586355,2.11571430153157e-07,-0.000404821075630211,-1.34595617051036e-05,-28.8750018715973
23.5,0.00018431101147293,0.000360412312237202,0.000158966984091804,0.796807646125454,-0.418646472063651,7.02481025571799e-08,-0.000404804869711776,-4.47167133885619e-06,-27.717646649145
23.6,0.000185035342683378,0.000360043525954321,0.000158968390841926,0.805057697444316,-0.402424209723338,-7.1102890464303e-08,-0.000404807570740589,4.52637418226699e-06,-26.5590931596859
23.7,0.000185767181510895,0.000359689287918466,0.00015898175496809,0.813409986853609,-0.386257658875429,-2.12443891922653e-07,-0.000404827377733924,1.35176677165791e-05,-25.4012760344286
23.8,0.000186506618653945,0.000359349544704733,0.000159011296720663,0.821860604639181,-0.370154334547091,-3.5373723794585e-07,-0.000404866088646618,2.24853675145976e-05,-24.2461243019305
23.9,0.000187253741243225,0.000359024236155769,0.000159054202599401,0.83040557074981,-0.354121710218639,-4.94945240125944e-07,-0.000404921897865058,3.14128602161103e-05,-23.0955467812458
24,0.000188008632778851,0.000358713295420556,0.000159110472604302,0.839040836547141,-0.338167214582913,-6.36030173306601e-07,-0.000404996598153418,4.0283918885577e-05,-21.9514178653073
24.1,0.000188771373069133,0.000358416648996089,0.000159178699985244,0.847762286595439,-0.322298228331548,-7.76954259040785e-07,-0.000405088379623416,4.90828522183098e-05,-20.8155639621802
24.2,0.000189542038170987,0.000358134216771928,0.000159264511742718,0.856565740491769,-0.306522080964611,-9.17679649936609e-07,-0.000405199029645007,5.77946420931028e-05,-19.689750838205
24.3,0.00019032070033203,0.000357865912077611,0.000159363687626357,0.865446954733868,-0.290846047629064,-1.05816841888817e-06,-0.000405326734386022,6.64050667996423e-05,-18.5756720765091
24.4,0.000191107427934365,0.000357611641732883,0.000159475524261097,0.874401624625139,-0.275277345988116,-1.19838254075688e-06,-0.000405472376590329,7.4900807498033e-05,-17.474938826726
24.5,0.00019190228544012,0.000357371306100737,0.000159602835147186,0.883425386217497,-0.259823133117732,-1.33828388160229e-06,-0.000405635936945601,8.32695367145517e-05,-16.3890709797288
24.6,0.000192705333338754,0.000357144799143217,0.000159743510159439,0.892513818289103,-0.244490502437087,-1.4778341823618e-06,-0.000405817393773177,9.14999876014059e-05,-15.3194898580285
24.7,0.000193516628096163,0.000356932008479971,0.000159898252672917,0.901662444357468,-0.229286480672306,-1.61699505007995e-06,-0.000406015825424643,9.95820044439422e-05,-14.2675124679767
24.8,0.000194336222105636,0.000356732815449512,0.000160068469437742,0.910866734726408,-0.214218024853669,-1.75572794014478e-06,-0.000406232104211649,0.000107506573219416,-13.2343473177652
24.9,0.00019516416364066,0.000356547095173161,0.000160249236828487,0.920122108565546,-0.199292019349453,-1.89399414929348e-06,-0.000406466201636425,0.000115265834802653,-12.2210917665302
25,0.000196000496809631,0.000356374716621642,0.00016044547847058,0.929423936022823,-0.184515272936236,-2.03175480106843e-06,-0.000406717190834447,0.000122853080436942,-11.2287308354597
25.1,0.000196845261512489,0.000356215542684286,0.000160655084238836,0.938767540367432,-0.169894515908653,-2.16897083649137e-06,-0.000406985936051478,0.000130262732014593,-10.2581373834212
25.2,0.000197698493399301,0.000356069430240819,0.00016088016425844,0.948148200162812,-0.155436397228417,-2.30560300262805e-06,-0.000407271507267885,0.000137490308668395,-9.31007352687269
25.3,0.000198560223830825,0.000355936230235684,0.000161116498279025,0.957561151468402,-0.141147481713328,-2.44161184659308e-06,-0.0004075738691159,0.000144532381684065,-8.38519316758779
25.4,0.000199430479841076,0.000355815787754884,0.000161366899800835,0.967001590070383,-0.127034247269777,-2.57695770278232e-06,-0.000407893877775399,0.000151386519616608,-7.48404548163102
25.5,0.000200309284101921,0.000355707942105273,0.000161632775573992,0.9764646737387,-0.113103082168959,-2.7116006878769e-06,-0.000408230598952082,0.000158051225951432,-6.60707921822755
25.6,0.000201196654889733,0.000355612526896292,0.000161910608723192,0.985945524509225,-0.0993602823655879,-2.84550069384881e-06,-0.00040858309931854,0.000164525871116824,-5.75464765742757
25.7,0.000202092606054114,0.000355529370124082,0.000162201805998555,0.995439230992406,-0.0858120488645436,-2.97861738063343e-06,-0.000408953120495627,0.000170810620730625,-4.92701408043203
25.8,0.000202997146988717,0.000355458294257942,0.000162504257274898,1.00494085070408,-0.0724644851332353,-3.11091017235476e-06,-0.000409338834249624,0.00017690636163326,-4.12435761404079
25.9,0.000203910282604189,0.000355399116329096,0.000162822886177651,1.01444541241943,-0.0593235945622269,-3.24233825299558e-06,-0.00040974108571752,0.000182814627615416,-3.34677932150946
26,0.000204832013303252,0.000355351648021716,0.000163154879206567,1.02394791854878,-0.0463952779750942,-3.37286056395492e-06,-0.000410158937678906,0.000188537525680072,-2.59430842441281
26.1,0.000205762334957939,0.000355315695766156,0.000163498126236464,1.03344334753298,-0.0336853311881706,-3.50243580005127e-06,-0.000410593230156441,0.000194077664034733,-1.86690855355801
26.2,0.000206701238889012,0.000355291060834362,0.000163855440767586,1.04292665625844,-0.0211994426218918,-3.63102241096591e-06,-0.000411043911039917,0.000199438083086118,-1.16448394095544
26.3,0.000207648711847561,0.000355277539437398,0.000164225416049811,1.05239278248983,-0.00894319096369925,-3.75857860035467e-06,-0.000411509155148946,0.000204622189513624,-0.486885478609684
26.4,0.000208604735998822,0.000355274922825053,0.000164606645333017,1.06183664731977,0.00307795711489605,-3.88506232695818e-06,-0.000411989797757629,0.000209633694462992,0.166083416610324
26.5,0.000209569288908213,0.00035528299738747,0.000165001238742386,1.07125315763442,0.0148586491879153,-4.01043130682233e-06,-0.000412486668634409,0.000214476555897183,0.794661180396746
26.6,0.000210542343529604,0.000355301544758756,0.000165408492902858,1.08063720859301,0.0263936492489084,-4.13464301862732e-06,-0.00041299794423982,0.000219154925550592,1.39912275740094
26.7,0.00021152386819584,0.00035533034192252,0.000165827704439372,1.08998368612057,0.03767783982923,-4.25765470590811e-06,-0.00041352357114436,0.000223673100238019,1.97977456303327
26.8,0.000212513826611519,0.000355369161319286,0.00016626028010205,1.09928746941363,0.0487062240588562,-4.37942338527009e-06,-0.00041406437490752,0.000228035477973632,2.53694976786708
26.9,0.000213512177848047,0.000355417770955731,0.000166704813140769,1.10854343345532,0.0594739276697584,-4.4999058521622e-06,-0.000414619417108738,0.000232246518367672,3.07100391405123
27,0.000214518876340967,0.000355475934515705,0.000167159193430346,1.11774645154085,0.0699762009410156,-4.61905869020285e-06,-0.000415187762814186,0.000236310707462302,3.5823108663988
27.1,0.000215533871889578,0.000355543411472955,0.00016762834459621,1.12689139781183,0.0802084205837173,-4.73683828006166e-06,-0.000415771110669814,0.000240232526592273,4.07125909521794
27.2,0.000216557109658848,0.000355619957205533,0.000168108749763054,1.13597314979645,0.090166091566024,-4.85320081144991e-06,-0.000416368522279285,0.000244016425215683,4.53824828359139
27.3,0.000217588530183631,0.000355705323111807,0.000168598298805694,1.14498659095613,0.0998448488771629,-4.96810229422273e-06,-0.000416978189074737,0.000247666797247468,4.98368624818646
27.4,0.00021862806937518,0.000355799256728024,0.000169100508599438,1.15392661323704,0.109240459230055,-5.08149857303408e-06,-0.000417601802897834,0.00025118796084653,5.40798616004254
27.5,0.000219675658529984,0.000355901501847389,0.000169615379144284,1.16278811962457,0.118348822701655,-5.19334534199167e-06,-0.000418237558505429,0.000254584141195767,5.81156404981217
27.6,0.000220731224340899,0.000356011798640578,0.000170140800315049,1.17156602669975,0.127165974308941,-5.30359815864578e-06,-0.000418887140774345,0.000257859455967957,6.19483658056027
27.7,0.000221794688910604,0.000356129883777637,0.000170676772111734,1.18025526719726,0.135688085522868,-5.4122124630851e-06,-0.000419548748072516,0.000261017903489373,6.55821907066059
27.8,0.000222865969767368,0.000356255490551222,0.000171221887784214,1.18885079256141,0.143911465717777,-5.51914359658845e-06,-0.000420222323602532,0.000264063353064469,6.90212374876952
27.9,0.000223944979883121,0.000356388349001106,0.000171779664207798,1.1973475755023,0.151832563554813,-5.62434682116475e-06,-0.000420907809906387,0.000266999537281315,7.22695822290615
28,0.000225031627693844,0.000356528186039895,0.000172347991257301,1.20574061254774,0.159447968301241,-5.727777339537e-06,-0.000421605148887034,0.000269830046046251,7.53312414616995
28.1,0.000226125817122263,0.000356674725579909,0.000172924758807539,1.21402492659072,0.166754411083351,-5.82939031779084e-06,-0.000422314281829907,0.000272558322237398,7.82101606192896
28.2,0.000227227447602836,0.000356827688661152,0.000173512780358758,1.22219556943264,0.173748766072726,-5.92914091113173e-06,-0.000423034287876419,0.000275187658784478,8.09102041210336
28.3,0.000228336414109054,0.000356986793580321,0.000174110649160834,1.23024762431823,0.180428051606908,-6.02698428342485e-06,-0.000423765111604122,0.000277721196631707,8.34351469306174
28.4,0.000229452607183013,0.000357151756020788,0.000174717661838707,1.23817620846304,0.186789431240897,-6.12287563783731e-06,-0.000424506697142396,0.000280161924011533,8.578866744295
28.5,0.000230575912967277,0.000357322289183501,0.000175333818392377,1.24597647557194,0.192830214732629,-6.21677024326139e-06,-0.000425258131147831,0.000282512676521812,8.79743415629327
28.6,0.000231706213239015,0.000357498103918737,0.000175961228947027,1.25364361834596,0.198547858960264,-6.30862345785133e-06,-0.000426019361506789,0.000284776137584966,8.99956378476704
28.7,0.000232843385446397,0.000357678908858646,0.000176597080002412,1.26117287097839,0.203939968770359,-6.39839076344018e-06,-0.000426790335800457,0.000286954840021426,9.18559135934895
28.8,0.00023398730274724,0.000357864410550534,0.00017723996480841,1.26855951163687,0.20900429775873,-6.48602779307339e-06,-0.000427571001319534,0.000289051167678249,9.35584117599716
28.9,0.000235137834049893,0.000358054313590806,0.000177892696865266,1.27579886493086,0.213738748981194,-6.57149036209503e-06,-0.000428360454243129,0.000291067357717561,9.51062586301145
29,0.000236294844056353,0.000358248320759525,0.00017855527617298,1.28288630436533,0.2181413755966,-6.65473450145448e-06,-0.000429158646076994,0.000293005503070168,9.65024621166532
29.1,0.000237458193307582,0.000358446133155513,0.000179225592606368,1.28981725477448,0.222210381439543,-6.73571649212334e-06,-0.000429964680490999,0.000294867555281837,9.77499106311502
29.2,0.000238627738231025,0.000358647450331939,0.000179901536040246,1.29658719473942,0.225944121523952,-6.81439289484942e-06,-0.000430779359521883,0.000296655327228737,9.88513724412589
29.3,0.000239803331190299,0.000358851970432324,0.000180587326724982,1.30319165898686,0.229341102478138,-6.89072058901452e-06,-0.000431601789771857,0.000298370496324149,9.98094954490385
29.4,0.000240984820537053,0.000359059390326908,0.00018127944778527,1.30962624076491,0.232399982908838,-6.96465680682934e-06,-0.00043243192701544,0.000300014607554661,10.0626807328831
29.5,0.00024217205066495,0.000359269405749311,0.000181979305971232,1.31588659419908,0.235119573696415,-7.03615917130307e-06,-0.000433268885756516,0.000301589076676579,10.1305715970954
29.6,0.000243364862065788,0.000359481711433433,0.000182686901282867,1.32196843662456,0.23749883822043,-7.10518573132646e-06,-0.000434111786976639,0.000303095193251549,10.1848510182525
29.7,0.000244563091387706,0.000359696001250516,0.000183400826970055,1.32786755089363,0.239536892514886,-7.17169500275006e-06,-0.000434962271976821,0.000304534123866927,10.2257360601941
29.8,0.000245766571495469,0.000359911968346326,0.000184121083032794,1.33357978765925,0.241233005354807,-7.23564600280113e-06,-0.000435818623809696,0.000305906915041159,10.2534320789196
29.9,0.00024697513153281,0.000360129305278369,0.000184849076221207,1.33910106762973,0.242586598272648,-7.29699829493669e-06,-0.000436679973334051,0.00030721449632803,10.2681328457887
30,0.000248188596986794,0.000360347704153102,0.000185581289659988,1.34442738379708,0.24359724550479,-7.35571202392649e-06,-0.000437547124007952,0.000308457683074373,10.2700206818885
30.1,0.000249406789754183,0.000360566856763055,0.000186319833474321,1.34955480363702,0.244264673869924,-7.41174795915178e-06,-0.000438420041409131,0.00030963717925361,10.2592666010428
30.2,0.000250629528209786,0.000360786454723821,0.000187063300914082,1.35447947127685,0.244588762577234,-7.46506753235288e-06,-0.000439297031855226,0.000310753579982863,10.2360304591168
30.3,0.000251856627276745,0.000361006189610837,0.000187813098729395,1.35919760963363,0.244569542966035,-7.51563288337032e-06,-0.000440178071001398,0.000311807374218799,10.2004611076875
30.4,0.000253087898498745,0.000361225753095902,0.000188566413420015,1.36370552251966,0.244207198176724,-7.56340689678225e-06,-0.000441063960916923,0.000312798946923123,10.1526965503909
30.5,0.000254323150114113,0.000361444837083368,0.000189324651736064,1.36799959671405,0.243502062753276,-7.60835324897791e-06,-0.000441953023098125,0.000313728581510009,10.0928641005035
30.6,0.000255562187131776,0.000361663133845948,0.000190089220427664,1.37207630400039,0.242454622176897,-7.65043644324059e-06,-0.000442845238438953,0.000314596461643244,10.0210805385132
30.7,0.000256804811409041,0.000361880336160065,0.000190854492494326,1.37593220316803,0.241065512333065,-7.6896218592637e-06,-0.000443740587919528,0.000315402673477666,9.93745226875847
30.8,0.000258050821731177,0.000362096137440702,0.000191625391561478,1.37956394197698,0.239335518910274,-7.7258757902321e-06,-0.000444638232919167,0.000316147207236297,9.84207547422397
30.9,0.000259300013892744,0.000362310231875675,0.000192399104128876,1.38296825908569,0.237265576730831,-7.75916548678701e-06,-0.00044553897759503,0.000316829958923827,9.73503626884076
31,0.000260552180780664,0.000362522314559276,0.000193178443696763,1.38614198593866,0.234856769017659,-7.78945919921448e-06,-0.000446441170432484,0.000317450731823049,9.61641084695125
31.1,0.000261807112458966,0.000362732081625234,0.00019395707988959,1.38908204861527,0.232110326591806,-7.81672622052199e-06,-0.00044734480266969,0.000318009237888189,9.48626562933746
31.2,0.000263064596255196,0.000362939230378911,0.00019474274983303,1.39178546963796,0.22902762700557,-7.84093692685062e-06,-0.000448249865601539,0.000318505098896004,9.34465740577769
31.3,0.000264324416848436,0.000363143459428709,0.000195526309651286,1.39424936973717,0.225610193611012,-7.86206281899737e-06,-0.000449154727690681,0.000318937847515429,9.19163347401253
31.4,0.000265586356358905,0.000363344468816595,0.000196312682969787,1.39647096957576,0.221859694562462,-7.88007656526979e-06,-0.00045006100977505,0.000319306928310328,9.02723177503455
31.5,0.000266850194439095,0.000363541960147708,0.000197100463038411,1.398447591428,0.217777941755702,-7.89495204256419e-06,-0.000450967895111063,0.000319611698557318,8.85148102493551
31.6,0.000268115708366412,0.000363735636718985,0.000197890353232219,1.40017666081404,0.213366889703252,-7.90666437566756e-06,-0.000451872960379428,0.000319851428887091,8.66440084347892
31.7,0.000269382673137265,0.000363925203646748,0.00019868165017615,1.4016557080903,0.208628634346804,-7.91518997678153e-06,-0.000452778631354827,0.000320025303838712,8.46600187973049
31.8,0.000270650861562582,0.000364110367993193,0.000199475057245265,1.40288236999178,0.203565411807642,-7.92050658882104e-06,-0.00045368249437358,0.000320132422480391,8.25628593519584
31.9,0.000271920044364698,0.000364290838891731,0.000200266354189196,1.40385439112818,0.198179597074954,-7.92259331960921e-06,-0.000454585361972814,0.00032017179858555,8.0352460849309
32,0.000273189990275563,0.000364466327671127,0.000201057651133128,1.40456962543161,0.192473702633482,-7.92143068406581e-06,-0.000455487240071899,0.000320142361066833,7.8028667972727
32.1,0.000274460466136255,0.00036463654797837,0.000201850354827182,1.40502603755539,0.186450377031619,-7.91700063973444e-06,-0.000456385738775652,0.000320042954087076,7.55912405290615
32.2,0.000275731236997723,0.00036480121590024,0.000202641651771113,1.40522170422343,0.180112403389202,-7.90928662453005e-06,-0.000457282472053413,0.000319872337218799,7.30398546400121
